City_ID,City,Lat,Lng,Max Temp,Humidity,Cloudiness,Wind Speed,Country,Date
0,tornio,65.8481,24.1466,1.01,86,98,5.2,FI,1670294673
1,butaritari,3.0707,172.7902,27.16,80,86,6.66,KI,1670294673
2,nikolskoye,59.7035,30.7861,-7.06,88,100,3.86,RU,1670294674
3,margate,51.3813,1.3862,8.16,84,97,2.68,GB,1670294674
4,castro,-24.7911,-50.0119,18.43,95,91,1.33,BR,1670294675
5,mataura,-46.1927,168.8643,10.27,37,16,2.75,NZ,1670294675
6,qaanaaq,77.484,-69.3632,-0.82,74,100,5.74,GL,1670294620
7,muros,42.7762,-9.0603,10.61,93,86,1.52,ES,1670294675
8,bluff,-46.6,168.3333,10.45,59,10,5.9,NZ,1670294676
9,san patricio,28.017,-97.5169,22.13,86,53,5.55,US,1670294676
10,buala,-8.145,159.5921,28.86,74,90,2.24,SB,1670294676
11,rikitea,-23.1203,-134.9692,24.02,81,100,6.17,PF,1670294676
12,cape town,-33.9258,18.4232,19.1,72,0,3.6,ZA,1670294524
13,mali,12.079,-12.2982,15.41,86,95,0.07,GN,1670294677
14,tiksi,71.6872,128.8694,-26.35,93,100,4.55,RU,1670294634
15,nikita,44.5333,34.2333,0.56,82,93,3.46,UA,1670294677
16,tasiilaq,65.6145,-37.6368,-2.91,58,8,1.71,GL,1670294634
17,barrow,71.2906,-156.7887,-5.99,79,0,6.69,US,1670294670
18,puerto ayora,-0.7393,-90.3518,20.86,94,24,1.79,EC,1670294678
19,le port,-20.9373,55.2919,26.98,57,100,2.59,RE,1670294678
20,vaini,-21.2,-175.2,28.09,83,75,5.66,TO,1670294504
21,puerto berrio,6.4916,-74.4033,21.78,98,16,0.71,CO,1670294679
22,albany,42.6001,-73.9662,3.66,57,97,2.31,US,1670294638
23,olafsvik,64.8945,-23.7142,4.05,78,45,2.61,IS,1670294531
24,chokurdakh,70.6333,147.9167,-40.72,100,42,1.25,RU,1670294512
25,carnarvon,-24.8667,113.6333,23.52,61,26,7.58,AU,1670294679
26,avarua,-21.2078,-159.775,25.03,83,75,2.06,CK,1670294679
27,salalah,17.0151,54.0924,22.05,60,0,3.09,OM,1670294630
28,new norfolk,-42.7826,147.0587,16.62,44,49,1.79,AU,1670294680
29,alta floresta,-9.8756,-56.0861,20.94,99,99,1.17,BR,1670294680
30,port blair,11.6667,92.75,27.02,83,75,5.14,IN,1670294680
31,souillac,-20.5167,57.5167,23.21,94,75,1.54,MU,1670294681
32,ushuaia,-54.8,-68.3,5.79,65,40,7.72,AR,1670294443
33,nanortalik,60.1432,-45.2371,2.11,79,100,7.21,GL,1670294681
34,krasnotorka,48.682,37.5327,-6.52,49,11,4.81,UA,1670294681
35,lavrentiya,65.5833,-171.0,-1.51,97,100,14.84,RU,1670294682
36,barcelos,41.5388,-8.6151,12.18,85,76,1.2,PT,1670294682
37,hachinohe,40.5,141.5,5.28,41,95,2.06,JP,1670294682
38,iisaku,59.1014,27.3081,-5.27,94,100,5.07,EE,1670294682
39,durres,41.3231,19.4414,8.1,71,9,2.82,AL,1670294683
40,port hedland,-20.3167,118.5667,39.03,30,45,6.69,AU,1670294683
41,saskylakh,71.9167,114.0833,-23.48,97,100,8.05,RU,1670294625
42,muravlenko,63.7898,74.523,-16.5,97,87,4.81,RU,1670294683
43,palimbang,6.2106,124.1894,30.51,66,99,2.99,PH,1670294684
44,coihaique,-45.5752,-72.0662,9.97,57,0,2.57,CL,1670294554
45,comodoro rivadavia,-45.8667,-67.5,17.92,34,0,12.35,AR,1670294665
46,mount darwin,-16.7725,31.5838,21.67,56,1,1.04,ZW,1670294684
47,moose factory,51.2585,-80.6094,-18.0,78,100,5.14,CA,1670294685
48,port elizabeth,-33.918,25.5701,16.16,86,0,3.09,ZA,1670294685
49,grindavik,63.8424,-22.4338,0.26,93,0,2.06,IS,1670294678
50,lebu,-37.6167,-73.65,14.03,90,8,1.28,CL,1670294536
51,namibe,-15.1961,12.1522,19.92,82,82,2.34,AO,1670294480
52,qaqortoq,60.7167,-46.0333,0.0,73,100,4.96,GL,1670294657
53,mahebourg,-20.4081,57.7,24.03,94,75,1.54,MU,1670294685
54,jamestown,42.097,-79.2353,6.77,38,75,4.12,US,1670294595
55,hobart,-42.8794,147.3294,16.81,57,75,8.23,AU,1670294686
56,saint-philippe,-21.3585,55.7679,24.77,84,97,4.88,RE,1670294686
57,chapais,49.7834,-74.8492,-9.12,97,100,2.83,CA,1670294674
58,havre-saint-pierre,50.2334,-63.5986,1.2,75,0,6.69,CA,1670294686
59,maribo,54.7766,11.5002,3.32,94,100,4.15,DK,1670294687
60,stettler,52.3168,-112.7186,-19.14,100,84,8.23,CA,1670294687
61,hermanus,-34.4187,19.2345,14.66,73,40,2.91,ZA,1670294687
62,constitucion,-35.3333,-72.4167,13.45,75,0,3.78,CL,1670294688
63,bolama,11.5833,-15.4667,23.19,77,12,2.9,GW,1670294688
64,vao,-22.6667,167.4833,25.31,85,87,5.5,NC,1670294676
65,erdenet,49.0333,104.0833,-19.22,72,1,2.29,MN,1670294619
66,vila velha,-20.3297,-40.2925,22.97,91,20,2.57,BR,1670294689
67,port alfred,-33.5906,26.891,13.43,95,100,1.34,ZA,1670294689
68,shache,38.4167,77.2406,-1.83,36,1,0.81,CN,1670294689
69,bredasdorp,-34.5322,20.0403,12.86,77,95,1.4,ZA,1670294690
70,orotukan,62.2667,151.7,-38.68,98,40,2.08,RU,1670294690
71,san vicente,-26.6167,-54.1333,19.79,91,30,1.21,AR,1670294690
72,jackson,42.4165,-122.8345,6.93,81,75,2.57,US,1670294691
73,palmer,42.1584,-72.3287,4.23,85,75,1.54,US,1670294691
74,asosa,10.0667,34.5333,17.17,46,34,2.0,ET,1670294691
75,innisfail,-17.5333,146.0333,29.28,51,0,3.97,AU,1670294660
76,bethel,41.3712,-73.414,3.68,79,0,0.0,US,1670294692
77,vardo,70.3705,31.1107,-2.01,93,40,8.23,NO,1670294692
78,karratha,-20.7377,116.8463,36.19,25,7,6.02,AU,1670294692
79,busselton,-33.65,115.3333,22.3,38,0,4.29,AU,1670294693
80,neyshabur,36.2133,58.7958,-0.71,66,2,0.34,IR,1670294693
81,laguna,38.421,-121.4238,12.99,80,0,3.09,US,1670294693
82,pangkalanbuun,-2.6833,111.6167,29.84,71,100,0.46,ID,1670294694
83,mpanda,-6.3655,31.0409,16.09,96,99,0.77,TZ,1670294694
84,east london,-33.0153,27.9116,14.89,80,67,3.88,ZA,1670294694
85,upernavik,72.7868,-56.1549,-2.1,62,74,4.2,GL,1670294694
86,mar del plata,-38.0023,-57.5575,21.01,78,0,4.63,AR,1670294409
87,atuona,-9.8,-139.0333,25.43,74,43,6.83,PF,1670294462
88,punta arenas,-53.15,-70.9167,5.06,65,40,5.14,CL,1670294695
89,bonavista,48.6499,-53.1147,2.41,89,99,4.39,CA,1670294695
90,kapaa,22.0752,-159.319,26.18,87,75,6.17,US,1670294442
91,powell,40.1578,-83.0752,7.45,55,100,0.89,US,1670294640
92,maymyo,22.0333,96.4667,21.29,61,2,0.79,MM,1670294696
93,ous,60.9058,61.5186,-16.43,98,98,1.86,RU,1670294696
94,cherskiy,68.75,161.3,-22.14,90,100,2.0,RU,1670294696
95,beringovskiy,63.05,179.3167,-3.29,80,53,10.04,RU,1670294696
96,novikovo,51.1537,37.8879,-8.19,57,43,2.41,RU,1670294697
97,longyearbyen,78.2186,15.6401,-13.09,61,40,10.29,SJ,1670294697
98,aguimes,27.9054,-15.4461,16.48,88,20,2.06,ES,1670294697
99,mount gambier,-37.8333,140.7667,19.77,41,100,3.17,AU,1670294698
100,soyo,-6.1349,12.3689,25.93,86,100,3.37,AO,1670294698
101,lagoa,39.05,-27.9833,15.95,77,100,11.15,PT,1670294698
102,ribeira grande,38.5167,-28.7,15.99,88,100,8.94,PT,1670294698
103,belen,36.4891,36.2233,3.08,100,40,1.54,TR,1670294699
104,sajalices,8.6834,-79.8707,25.79,80,99,2.52,PA,1670294699
105,missoula,47.0166,-113.8009,-7.97,87,92,2.78,US,1670294699
106,sao joao da barra,-21.6403,-41.0511,23.4,85,99,9.72,BR,1670294497
107,geraldton,-28.7667,114.6,25.23,53,0,9.26,AU,1670294500
108,fortuna,40.5982,-124.1573,7.51,92,100,2.06,US,1670294700
109,hue,16.4667,107.6,20.06,94,75,4.12,VN,1670294700
110,yuryuzan,54.8633,58.4219,-21.73,97,10,1.55,RU,1670294700
111,kupang,-10.1667,123.5833,31.32,70,20,4.12,ID,1670294701
112,grand gaube,-20.0064,57.6608,24.1,77,68,0.89,MU,1670294701
113,klaksvik,62.2266,-6.589,3.51,61,92,11.21,FO,1670294517
114,kahului,20.8947,-156.47,28.01,70,40,1.54,US,1670294572
115,ponta delgada,37.7333,-25.6667,17.4,72,20,6.17,PT,1670294702
116,georgetown,5.4112,100.3354,29.96,84,20,1.54,MY,1670294702
117,kavieng,-2.5744,150.7967,28.68,69,71,0.97,PG,1670294703
118,praia da vitoria,38.7333,-27.0667,14.86,94,75,9.1,PT,1670294703
119,gunjur,13.2019,-16.7339,23.99,72,6,4.38,GM,1670294704
120,harnoli,32.2792,71.5539,16.23,35,2,1.5,PK,1670294704
121,vanavara,60.34,102.2797,-11.93,92,100,4.81,RU,1670294704
122,huarmey,-10.0681,-78.1522,18.99,86,58,3.25,PE,1670294705
123,tuatapere,-46.1333,167.6833,13.08,53,42,3.29,NZ,1670294705
124,severo-kurilsk,50.6789,156.125,-3.51,76,88,7.04,RU,1670294705
125,bonthe,7.5264,-12.505,25.57,85,45,0.48,SL,1670294706
126,hithadhoo,-0.6,73.0833,27.45,74,100,4.19,MV,1670294706
127,port lincoln,-34.7333,135.8667,18.91,58,96,4.26,AU,1670294707
128,marawi,7.9986,124.2928,27.39,60,97,1.47,PH,1670294707
129,majene,-3.5403,118.9707,29.19,68,100,3.12,ID,1670294707
130,batagay-alyta,67.8006,130.4114,-28.79,98,100,1.16,RU,1670294707
131,miles city,46.4083,-105.8406,-5.46,93,100,4.63,US,1670294708
132,baley,51.6,116.6333,-10.24,76,100,5.73,RU,1670294709
133,miri,4.4148,114.0089,32.31,66,40,1.54,MY,1670294709
134,lekoni,-1.5843,14.2591,22.37,88,100,2.15,GA,1670294709
135,san juan de los morros,9.9115,-67.3538,19.02,78,60,2.15,VE,1670294710
136,sterling,39.0062,-77.4286,5.09,71,0,1.54,US,1670294588
137,korla,41.7597,86.1469,-3.49,39,100,0.75,CN,1670294608
138,alofi,-19.0595,-169.9187,29.94,62,40,2.57,NU,1670294566
139,daru,-9.0763,143.2092,30.22,61,70,5.29,PG,1670294710
140,magaria,12.9983,8.9099,18.78,23,24,4.11,NE,1670294711
141,raudeberg,61.9875,5.1352,2.7,57,99,12.46,NO,1670294711
142,victoria,22.2855,114.1577,16.85,73,100,4.47,HK,1670294538
143,saint anthony,45.0205,-93.218,-4.92,59,20,5.14,US,1670294712
144,tiznit,29.5833,-9.5,13.48,85,100,0.18,MA,1670294712
145,khatanga,71.9667,102.5,-24.0,88,100,5.29,RU,1670294649
146,kiunga,-6.1219,141.2906,29.2,74,100,0.87,PG,1670294713
147,saint-georges,12.0564,-61.7485,23.82,88,20,0.0,GD,1670294713
148,voh,-20.9667,164.7,27.13,84,97,3.19,NC,1670294713
149,atar,20.5169,-13.0499,22.07,24,38,1.69,MR,1670294713
150,kaitangata,-46.2817,169.8464,13.96,49,27,6.25,NZ,1670294476
151,south venice,27.0531,-82.4243,21.66,90,0,0.0,US,1670294714
152,aksu,41.1231,80.2644,-3.13,31,96,1.33,CN,1670294715
153,iqaluit,63.7506,-68.5145,-21.75,98,57,1.72,CA,1670294679
154,college,64.8569,-147.8028,-5.61,91,100,0.0,US,1670294715
155,bilma,18.6853,12.9164,20.64,22,66,3.01,NE,1670294716
156,vokhma,58.9303,46.7586,-13.47,94,100,2.3,RU,1670294716
157,caravelas,-17.7125,-39.2481,21.72,92,90,2.05,BR,1670294716
158,languyan,5.2618,120.0807,29.33,68,91,2.59,PH,1670294717
159,makakilo city,21.3469,-158.0858,26.18,66,100,4.12,US,1670294660
160,tuktoyaktuk,69.4541,-133.0374,-27.0,63,40,10.8,CA,1670294479
161,mandera,3.9366,41.867,25.08,65,46,4.03,KE,1670294596
162,cidreira,-30.1811,-50.2056,21.66,92,100,3.01,BR,1670294604
163,cabo san lucas,22.8909,-109.9124,26.4,71,0,5.14,MX,1670294718
164,narsaq,60.9167,-46.05,6.12,71,99,5.76,GL,1670294497
165,harper,4.375,-7.7169,25.19,88,98,2.09,LR,1670294718
166,mongoumba,3.6415,18.5936,22.0,82,63,1.38,CF,1670294718
167,okahandja,-21.9833,16.9167,16.4,21,0,2.45,NA,1670294719
168,saint-francois,46.4154,3.9054,-2.31,100,100,0.0,FR,1670294719
169,havelock,34.8791,-76.9013,12.19,87,40,3.09,US,1670294720
170,ostrovnoy,68.0531,39.5131,-3.58,91,100,9.29,RU,1670294720
171,airai,-8.9266,125.4092,26.17,31,48,1.09,TL,1670294721
172,zhigansk,66.7697,123.3711,-34.53,100,95,2.79,RU,1670294650
173,kawalu,-7.3817,108.2082,28.52,71,94,1.58,ID,1670294721
174,nador,35.174,-2.9287,20.04,59,0,3.6,MA,1670294721
175,dikson,73.5069,80.5464,-5.61,96,100,5.35,RU,1670294485
176,paamiut,61.994,-49.6678,3.06,83,100,15.32,GL,1670294644
177,muscat,23.6139,58.5922,20.01,62,4,0.44,OM,1670294516
178,jaciara,-15.9653,-54.9683,21.69,94,100,1.48,BR,1670294722
179,lufilufi,-13.8745,-171.5986,30.88,73,95,3.28,WS,1670294722
180,ranghulu,46.65,124.8667,-9.91,63,52,5.76,CN,1670294723
181,la ronge,55.1001,-105.2842,-28.86,69,100,1.03,CA,1670294473
182,hirara,24.8,125.2833,20.92,77,75,11.83,JP,1670294724
183,asau,46.4333,26.4,-1.49,98,100,1.35,RO,1670294725
184,santo domingo,18.5001,-69.9886,24.46,83,20,1.34,DO,1670294398
185,zhenlai,45.8495,123.2973,-8.62,54,47,8.23,CN,1670294725
186,henties bay,-22.116,14.2845,13.6,91,14,4.26,NA,1670294726
187,iquique,-20.2208,-70.1431,19.02,68,95,0.72,CL,1670294575
188,moron,-34.6534,-58.6198,28.86,56,0,3.82,AR,1670294726
189,hvolsvollur,63.7533,-20.2243,-0.4,75,13,1.43,IS,1670294726
190,saint george,37.1041,-113.5841,12.33,70,40,2.06,US,1670294576
191,drovyanaya,51.5833,113.0333,-9.01,64,100,10.54,RU,1670294727
192,adrar,20.5022,-10.0711,22.29,30,30,1.08,MR,1670294727
193,clyde river,70.4692,-68.5914,-6.87,100,100,1.54,CA,1670294728
194,torbay,47.6666,-52.7314,4.86,96,100,2.06,CA,1670294728
195,hilo,19.7297,-155.09,25.85,84,40,5.66,US,1670294620
196,hamilton,39.1834,-84.5333,7.43,90,100,4.12,US,1670294222
197,la libertad,-2.2333,-80.9,22.81,78,75,3.6,EC,1670294729
198,ferme-neuve,46.7001,-75.4493,1.34,65,100,3.81,CA,1670294729
199,eqbaliyeh,35.3022,51.5358,4.9,78,96,1.35,IR,1670294729
200,provideniya,64.3833,-173.3,0.2,93,100,14.0,RU,1670294565
201,varhaug,58.6147,5.6457,2.49,82,100,5.61,NO,1670294730
202,esperance,-33.8667,121.9,18.46,71,84,7.19,AU,1670294730
203,galesong,-5.3166,119.3661,32.01,65,89,1.77,ID,1670294730
204,kavaratti,10.5669,72.642,27.93,67,75,2.2,IN,1670294731
205,george,-33.963,22.4617,11.75,87,40,2.57,ZA,1670294731
206,santa cruz de la palma,28.6835,-17.7642,18.08,82,0,2.57,ES,1670294655
207,myitkyina,25.3833,97.4,21.36,41,0,1.11,MM,1670294731
208,yellowknife,62.456,-114.3525,-35.25,68,0,3.09,CA,1670294632
209,gwadar,25.1216,62.3254,22.72,62,6,2.34,PK,1670294508
210,eydhafushi,5.1033,73.0708,26.57,79,100,3.18,MV,1670294732
211,roma,43.2128,-75.4557,3.94,54,0,2.57,US,1670294733
212,hirado,33.3597,129.5531,9.66,52,25,6.73,JP,1670294733
213,coquimbo,-29.9533,-71.3436,14.85,94,0,1.54,CL,1670294548
214,gambo,4.6482,22.2633,19.58,97,11,0.63,CF,1670294733
215,lumajang,-8.1335,113.2248,30.17,61,81,1.45,ID,1670294734
216,ixtapa,20.7,-105.2,24.57,88,40,2.06,MX,1670294442
217,leh,34.1667,77.5833,-7.23,46,100,1.16,IN,1670294734
218,brae,60.3964,-1.353,5.29,64,98,10.87,GB,1670294734
219,alekseyevsk,57.8406,108.3492,-11.29,94,100,4.86,RU,1670294736
220,bentiu,9.2333,29.8333,22.95,33,7,2.71,SS,1670294737
221,zheshart,62.0731,49.5733,-13.61,93,92,2.3,RU,1670294737
222,montlucon,46.3333,2.6,-1.28,97,1,1.48,FR,1670294738
223,sistranda,63.7256,8.834,2.98,63,100,11.69,NO,1670294738
224,broken hill,-31.95,141.4333,23.52,27,97,0.99,AU,1670294738
225,san andres,12.5847,-81.7006,28.01,74,40,6.69,CO,1670294739
226,bengkulu,-3.8004,102.2655,27.56,71,100,1.29,ID,1670294739
227,obuasi,6.206,-1.6619,22.39,99,85,0.89,GH,1670294739
228,antigonish,45.6169,-61.9986,-1.21,70,37,1.91,CA,1670294740
229,ust-nera,64.5667,143.2,-41.65,97,89,0.94,RU,1670294740
230,ziro,27.6333,93.8333,7.41,46,4,0.7,IN,1670294740
231,homer,59.6425,-151.5483,3.21,92,100,3.6,US,1670294740
232,cuamba,-14.8031,36.5372,21.41,82,38,1.94,MZ,1670294741
233,padang,-0.9492,100.3543,29.03,74,100,0.32,ID,1670294741
234,fallon,39.4735,-118.7774,5.93,48,40,5.14,US,1670294741
235,chuy,-33.6971,-53.4616,17.26,94,0,2.5,UY,1670294678
236,aloha,45.4943,-122.8671,4.01,89,40,2.06,US,1670294742
237,de-kastri,51.4667,140.7833,-11.41,66,24,1.88,RU,1670294742
238,ballina,-28.8667,153.5667,34.32,38,0,2.83,AU,1670294743
239,nsanje,-16.92,35.262,23.78,76,2,1.21,MW,1670294743
240,ilulissat,69.2167,-51.1,4.01,48,20,10.29,GL,1670294566
241,quang ngai,15.1167,108.8,23.89,90,100,4.81,VN,1670294743
242,yulara,-25.2406,130.9889,40.27,9,13,8.59,AU,1670294642
243,gilbues,-9.8317,-45.3439,21.54,79,79,2.19,BR,1670294744
244,hualmay,-11.0964,-77.6139,18.85,86,91,2.98,PE,1670294634
245,udachnyy,66.4167,112.4,-33.44,100,91,2.39,RU,1670294744
246,te anau,-45.4167,167.7167,11.16,81,99,1.39,NZ,1670294744
247,manyana,-23.4,21.7167,20.98,17,41,3.18,BW,1670294745
248,parana,-31.732,-60.5238,28.62,63,0,3.68,AR,1670294745
249,zeya,53.75,127.2667,-19.48,88,86,0.14,RU,1670294745
250,rio gallegos,-51.6226,-69.2181,9.03,40,40,6.17,AR,1670294746
251,cockburn town,21.4612,-71.1419,25.78,61,2,8.25,TC,1670294567
252,bandundu,-3.3167,17.3667,20.67,94,81,1.0,CD,1670294746
253,urengoy,65.9667,78.3667,-13.08,90,92,4.5,RU,1670294746
254,novo aripuana,-5.1206,-60.3797,23.15,97,100,0.71,BR,1670294747
255,jalna,19.8333,75.8833,22.07,48,8,2.34,IN,1670294747
256,faya,18.3851,42.4509,10.29,59,0,1.35,SA,1670294747
257,dayong,25.0209,118.2898,16.04,65,99,1.83,CN,1670294747
258,kovdor,67.5662,30.4758,-2.69,91,100,4.9,RU,1670294748
259,kadoma,34.7333,135.5833,13.14,45,20,3.6,JP,1670294748
260,nanakuli,21.3906,-158.1547,26.97,57,100,3.6,US,1670294748
261,arraial do cabo,-22.9661,-42.0278,23.12,90,100,9.95,BR,1670294644
262,ghanzi,-21.5667,21.7833,24.01,27,59,2.42,BW,1670294749
263,srednekolymsk,67.45,153.6833,-33.7,99,100,1.66,RU,1670294749
264,thunder bay,48.4001,-89.3168,-12.01,61,100,4.63,CA,1670294551
265,tsumeb,-19.2333,17.7167,23.65,27,77,1.6,NA,1670294749
266,bambous virieux,-20.3428,57.7575,24.01,94,75,1.54,MU,1670294644
267,kayerkan,69.3497,87.7602,-4.15,100,100,6.43,RU,1670294750
268,ukiah,39.1502,-123.2078,8.94,88,75,0.0,US,1670294750
269,solone,48.2081,34.8721,-6.79,49,18,4.72,UA,1670294751
270,molina,-35.1167,-71.2833,22.85,31,0,3.09,CL,1670294751
271,mega,4.05,38.3,14.32,67,53,2.4,ET,1670294751
272,barahona,18.2085,-71.1008,22.81,77,0,1.54,DO,1670294751
273,ancud,-41.8697,-73.8203,11.96,96,61,1.38,CL,1670294752
274,changji,44.0167,87.3167,-9.56,79,0,2.0,CN,1670294752
275,camacupa,-12.0167,17.4833,16.31,96,95,0.28,AO,1670294752
276,kaitong,44.8135,123.15,-7.2,34,40,8.68,CN,1670294753
277,hami,42.8,93.45,-3.97,38,100,1.5,CN,1670294753
278,santa isabel do rio negro,-0.4139,-65.0192,24.5,90,100,1.03,BR,1670294753
279,portland,45.5234,-122.6762,4.34,85,100,3.6,US,1670294427
280,thompson,55.7435,-97.8558,-32.91,68,0,2.57,CA,1670294480
281,grootfontein,-19.5667,18.1167,21.76,23,42,1.03,NA,1670294754
282,montabaur,50.4333,7.8333,2.34,99,100,1.13,DE,1670294754
283,acapulco,16.8634,-99.8901,25.24,79,0,2.16,MX,1670294754
284,hobyo,5.3505,48.5268,25.74,84,64,8.66,SO,1670294755
285,bureya,49.8133,129.8131,-14.62,85,100,3.51,RU,1670294755
286,tres coracoes,-21.6969,-45.2533,18.17,97,100,1.11,BR,1670294647
287,inhambane,-23.865,35.3833,24.87,90,77,3.25,MZ,1670294755
288,belaya gora,68.5333,146.4167,-40.99,96,36,0.49,RU,1670294756
289,tura,25.5198,90.2201,21.16,63,0,0.6,IN,1670294492
290,metro,-5.1131,105.3067,29.96,61,87,0.71,ID,1670294756
291,trelew,-43.249,-65.3051,23.11,27,7,10.92,AR,1670294651
292,pevek,69.7008,170.3133,-21.97,78,100,2.26,RU,1670294756
293,sarangani,5.4033,125.4636,27.87,78,83,8.84,PH,1670294757
294,ambilobe,-13.2,49.05,24.01,82,3,1.06,MG,1670294757
295,cabinda,-5.55,12.2,25.7,88,100,2.57,AO,1670294757
296,hambantota,6.1241,81.1185,24.19,100,40,1.03,LK,1670294757
297,vila do maio,15.1333,-23.2167,21.44,69,22,3.21,CV,1670294758
298,cayenne,4.9333,-52.3333,24.02,100,100,0.51,GF,1670294594
299,vikhorevka,56.1201,101.1636,-12.23,86,100,7.3,RU,1670294758
300,leningradskiy,69.3833,178.4167,-22.62,90,87,2.25,RU,1670294758
301,ulsteinvik,62.3432,5.8487,5.42,84,100,4.02,NO,1670294759
302,rahden,52.4333,8.6167,2.17,97,100,1.71,DE,1670294759
303,mata,40.683,-7.4592,8.4,98,100,1.45,PT,1670294759
304,pacific grove,36.6177,-121.9166,11.82,90,0,2.24,US,1670294760
305,isangel,-19.55,169.2667,33.06,70,84,2.06,VU,1670294711
306,viedma,-40.8135,-62.9967,24.39,45,84,4.53,AR,1670294760
307,mayo,38.8876,-76.5119,5.63,93,0,2.06,US,1670294643
308,kodiak,57.79,-152.4072,0.73,100,100,2.57,US,1670294536
309,naryan-mar,67.6713,53.087,-13.75,94,99,6.0,RU,1670294761
310,lorengau,-2.0226,147.2712,26.9,84,99,5.16,PG,1670294761
311,yeppoon,-23.1333,150.7333,31.88,51,0,4.84,AU,1670294761
312,cairns,-16.9167,145.7667,37.26,52,0,4.63,AU,1670294503
313,kodinsk,58.6881,99.1844,-12.68,94,100,5.6,RU,1670294712
314,baghmara,23.795,86.2085,18.49,35,0,2.95,IN,1670294762
315,erenhot,43.6475,111.9767,-10.29,42,0,7.87,CN,1670294762
316,lompoc,34.6391,-120.4579,12.1,94,0,2.57,US,1670294762
317,riyadh,24.6877,46.7219,18.08,44,4,4.19,SA,1670294672
318,road town,18.4167,-64.6167,26.05,65,23,8.18,VG,1670294763
319,sorland,67.667,12.6934,1.92,78,100,14.97,NO,1670294763
320,west bay,19.3667,-81.4167,26.11,71,20,6.17,KY,1670294764
321,sao gabriel da cachoeira,-0.1303,-67.0892,23.84,91,100,0.88,BR,1670294517
322,kokoda,-8.8785,147.7407,28.15,82,99,1.19,PG,1670294764
323,nome,64.5011,-165.4064,-0.96,80,100,13.38,US,1670294721
324,pisco,-13.7,-76.2167,19.45,82,0,5.14,PE,1670294581
325,bytow,54.1706,17.4919,0.12,94,100,1.75,PL,1670294765
326,xining,36.6167,101.7667,-1.6,41,90,0.43,CN,1670294766
327,katherine,-14.4667,132.2667,34.18,38,100,3.6,AU,1670294766
328,pehowa,29.9833,76.5833,13.67,40,1,2.48,IN,1670294766
329,abonnema,4.7084,6.7931,26.16,88,100,2.12,NG,1670294766
330,ulaangom,49.9811,92.0667,-26.0,91,34,0.26,MN,1670294767
331,humberto de campos,-2.5983,-43.4611,25.96,81,68,4.05,BR,1670294767
332,northam,51.0333,-4.2167,6.33,82,100,6.76,GB,1670294768
333,manali,13.1667,80.2667,26.05,69,68,4.92,IN,1670294768
334,hofn,64.2539,-15.2082,1.35,68,77,3.49,IS,1670294486
335,sitka,57.0531,-135.33,2.94,87,100,1.54,US,1670294769
336,sisimiut,66.9395,-53.6735,1.46,75,100,5.82,GL,1670294769
337,parambu,-6.2111,-40.6944,25.68,57,57,4.02,BR,1670294769
338,san felipe,10.3399,-68.7425,18.44,97,47,0.29,VE,1670294769
339,muswellbrook,-32.2667,150.9,30.13,14,11,4.51,AU,1670294770
340,abu samrah,35.3029,37.1841,10.59,77,9,1.54,SY,1670294770
341,flinders,-34.5833,150.8552,20.14,63,56,4.82,AU,1670294771
342,san quintin,30.4833,-115.95,15.36,73,0,7.13,MX,1670294771
343,elizabeth city,36.2946,-76.2511,9.45,92,0,1.54,US,1670294771
344,kapoeta,4.7717,33.5903,26.43,46,51,5.04,SS,1670294772
345,yenagoa,4.9247,6.2642,24.86,91,82,1.54,NG,1670294600
346,kalengwa,-13.4659,25.0027,15.4,96,94,1.22,ZM,1670294772
347,wanning,18.8003,110.3967,21.08,77,88,6.02,CN,1670294772
348,tumaco,1.7986,-78.8156,23.71,82,16,1.66,CO,1670294773
349,port-gentil,-0.7193,8.7815,27.16,77,100,3.45,GA,1670294666
350,hoopstad,-27.8327,25.9083,14.89,21,0,2.66,ZA,1670294773
351,nouadhibou,20.931,-17.0347,18.99,82,36,6.69,MR,1670294774
352,panguna,-6.3164,155.4848,21.61,95,100,1.05,PG,1670294774
353,la romana,18.4273,-68.9728,22.2,100,20,3.09,DO,1670294774
354,khasan,42.4308,130.6434,-1.7,33,1,5.78,RU,1670294775
355,faanui,-16.4833,-151.75,26.66,75,20,7.19,PF,1670294728
356,port macquarie,-31.4333,152.9167,24.94,65,31,8.3,AU,1670294775
357,boa esperanca,-21.09,-45.5658,18.82,98,100,1.77,BR,1670294775
358,oytal,42.9057,73.2697,-5.59,89,90,1.42,KZ,1670294776
359,orlik,52.5178,99.825,-22.36,72,99,0.98,RU,1670294776
360,samarai,-10.6167,150.6667,28.87,67,88,3.85,PG,1670294568
361,los llanos de aridane,28.6585,-17.9182,15.86,85,0,2.57,ES,1670294777
362,nauta,-4.5061,-73.5757,25.27,82,100,0.35,PE,1670294777
363,kumluca,36.3703,30.2869,14.72,64,0,2.36,TR,1670294777
364,camacha,33.0833,-16.3333,15.68,77,20,1.03,PT,1670294778
365,saint-augustin,51.226,-58.6502,-6.0,86,13,0.63,CA,1670294778
366,inongo,-1.95,18.2667,20.89,94,100,0.87,CD,1670294569
367,katsuura,35.1333,140.3,7.01,91,100,8.26,JP,1670294779
368,mitsamiouli,-11.3847,43.2844,26.39,80,29,3.89,KM,1670294779
369,penzance,50.1186,-5.5371,7.38,86,99,9.27,GB,1670294779
370,umtata,-31.5889,28.7844,9.11,94,17,1.36,ZA,1670294780
371,kenai,60.5544,-151.2583,-2.7,99,100,3.09,US,1670294780
372,honiara,-9.4333,159.95,29.67,71,97,1.9,SB,1670294781
373,broome,42.2506,-75.833,3.34,66,0,3.6,US,1670294781
374,plettenberg bay,-34.0527,23.3716,15.1,74,100,1.97,ZA,1670294781
375,napoleon,41.3923,-84.1252,6.2,59,100,2.8,US,1670294782
376,cannock,52.6904,-2.0309,4.23,92,77,1.34,GB,1670294779
377,lujan,-34.5703,-59.105,27.23,62,0,4.06,AR,1670294782
378,nuevo progreso,23.1667,-97.95,21.93,77,3,0.45,MX,1670294520
379,port hardy,50.6996,-127.4199,1.1,100,100,2.06,CA,1670294640
380,bawku,11.0616,-0.2417,26.04,26,83,3.52,GH,1670294783
381,axim,4.8699,-2.2405,25.75,87,75,2.01,GH,1670294784
382,villacarrillo,38.1156,-3.0848,9.11,89,100,2.08,ES,1670294784
383,havoysund,70.9963,24.6622,3.13,75,100,8.99,NO,1670294784
384,bud,39.447,-86.1758,6.62,90,100,2.56,US,1670294785
385,santiago,-33.4569,-70.6483,23.25,36,0,4.12,CL,1670294352
386,kuusamo,65.9667,29.1833,-3.98,93,100,7.72,FI,1670294785
387,kirovsk,48.6375,38.6428,-8.08,53,1,4.87,UA,1670294786
388,santa fe,-31.6333,-60.7,28.88,54,0,0.89,AR,1670294786
389,staryy nadym,65.6118,72.6842,-17.09,97,54,3.18,RU,1670294786
390,butte,39.6499,-121.5677,11.01,77,20,4.63,US,1670294418
391,saldanha,-33.0117,17.9442,13.03,83,16,4.28,ZA,1670294787
392,norman wells,65.282,-126.8329,-27.98,69,20,8.75,CA,1670294681
393,dovolnoye,54.4958,79.6671,-22.75,99,64,2.12,RU,1670294787
394,sturgis,41.7992,-85.4192,5.04,58,100,2.57,US,1670294736
395,sur,22.5667,59.5289,22.48,61,0,1.35,OM,1670294788
396,tambo,-14.8,-73.9167,2.86,68,100,1.1,PE,1670294788
397,vila franca do campo,37.7167,-25.4333,17.23,80,74,3.78,PT,1670294788
398,visp,46.2937,7.8815,4.94,55,0,1.55,CH,1670294789
399,naze,28.3667,129.4833,17.51,63,84,7.92,JP,1670294789
400,qasigiannguit,68.8193,-51.1922,4.14,69,56,5.34,GL,1670294789
401,giera,45.4072,20.9922,8.05,87,14,4.84,RO,1670294790
402,puerto carreno,6.189,-67.4859,24.83,76,96,3.24,CO,1670294790
403,dinghai,26.2847,119.7936,12.51,72,98,9.49,CN,1670294790
404,grand forks,47.9417,-97.4337,-19.15,77,40,2.06,US,1670294521
405,lasa,46.6166,10.7002,-1.47,72,13,2.07,IT,1670294791
406,kastamonu,41.5,33.6667,5.51,71,100,0.8,TR,1670294791
407,karaton,-6.3424,106.1045,27.05,77,100,1.0,ID,1670294791
408,bulawayo,-20.15,28.5833,19.78,66,55,5.06,ZW,1670294792
409,turochak,52.2576,87.1224,-19.92,100,87,0.34,RU,1670294792
410,katobu,-4.9408,122.5276,31.33,57,100,1.41,ID,1670294792
411,san cristobal,7.7669,-72.225,18.1,98,42,1.54,VE,1670294647
412,guerrero negro,27.9769,-114.0611,17.0,90,17,7.39,MX,1670294793
413,ambon,-3.6954,128.1814,31.08,74,40,3.09,ID,1670294547
414,victor harbor,-35.5667,138.6167,24.82,54,75,3.6,AU,1670294793
415,aklavik,68.2191,-135.0107,-25.16,85,85,8.27,CA,1670294793
416,high prairie,55.4334,-116.4858,-26.64,90,9,1.29,CA,1670294794
417,emborion,40.4833,21.55,7.2,93,73,1.68,GR,1670294794
418,hasaki,35.7333,140.8333,7.94,84,100,8.63,JP,1670294794
419,asmara,15.3333,38.9333,10.94,66,3,0.68,ER,1670294795
420,carolina,18.3808,-65.9574,26.94,74,75,5.14,PR,1670294514
421,ximei,24.9639,118.3794,16.39,62,95,2.92,CN,1670294795
422,horsham,51.064,-0.3272,5.73,90,40,3.6,GB,1670294795
423,arlit,18.7369,7.3853,23.37,18,100,1.49,NE,1670294796
424,mattawa,46.7379,-119.9028,-1.1,96,98,0.18,US,1670294796
425,sidi ali,36.0998,0.4206,14.69,77,100,2.8,DZ,1670294796
426,karakol,42.4907,78.3936,-5.76,74,100,1.63,KG,1670294797
427,lazaro cardenas,17.9583,-102.2,24.9,85,1,0.81,MX,1670294797
428,kitimat,54.0524,-128.6534,-9.79,86,10,1.22,CA,1670294797
429,ngunguru,-35.6167,174.5,18.12,79,100,3.72,NZ,1670294798
430,xingtai,37.0631,114.4942,4.27,25,72,1.14,CN,1670294798
431,zhezkazgan,47.8043,67.7144,-27.01,76,40,3.0,KZ,1670294798
432,kruisfontein,-34.0033,24.7314,13.27,80,100,2.76,ZA,1670294798
433,zyryanka,65.75,150.85,-45.19,97,33,1.89,RU,1670294799
434,manta,-0.95,-80.7333,22.88,83,75,2.06,EC,1670294799
435,kamiiso,41.8167,140.65,3.21,60,75,1.03,JP,1670294799
436,lata,40.1629,-8.3327,11.15,92,100,0.57,PT,1670294800
437,sao filipe,14.8961,-24.4956,22.47,67,26,1.59,CV,1670294558
438,rawson,-43.3002,-65.1023,21.76,35,20,8.33,AR,1670294505
439,satipo,-11.2522,-74.6386,19.33,97,91,1.3,PE,1670294800
440,sorong,-0.8833,131.25,29.04,69,86,3.77,ID,1670294663
441,sept-iles,50.2001,-66.3821,2.29,76,100,5.14,CA,1670294517
442,aguilas,37.4063,-1.5829,15.38,86,100,2.71,ES,1670294571
443,atasu,48.6814,71.6433,-25.96,97,60,2.03,KZ,1670294801
444,tigre,-34.426,-58.5796,29.0,55,0,4.12,AR,1670294801
445,sandwick,60.0,-1.25,4.9,65,88,6.17,GB,1670294801
446,chardara,41.2547,67.9692,-4.23,60,62,2.6,KZ,1670294802
447,channel-port aux basques,47.5702,-59.1367,1.39,66,3,2.46,CA,1670294711
448,pilikwe,-22.799,27.1938,20.89,71,84,2.42,BW,1670294802
449,sainte-thecle,46.8168,-72.4991,2.03,81,100,2.36,CA,1670294802
450,jaffna,9.6685,80.0074,26.96,75,100,5.61,LK,1670294803
451,baykit,61.67,96.37,-16.06,96,90,2.73,RU,1670294803
452,pangnirtung,66.1451,-65.7125,-7.5,96,100,1.28,CA,1670294682
453,ambunti,-4.2365,142.8448,24.11,92,100,0.55,PG,1670294803
454,stornoway,58.2093,-6.3865,4.98,86,75,4.12,GB,1670294804
455,takhtamygda,54.1,123.5667,-18.11,92,100,0.51,RU,1670294804
456,olbia,40.9214,9.4856,6.03,93,0,0.51,IT,1670294804
457,fort nelson,58.8053,-122.7002,-27.25,83,20,1.03,CA,1670294805
458,amudat,1.95,34.95,19.13,62,46,1.52,UG,1670294805
459,letterkenny,54.95,-7.7333,2.74,84,71,1.14,IE,1670294779
460,naro moru,-0.1676,37.0213,10.54,92,100,0.84,KE,1670294805
461,lexington,37.9887,-84.4777,8.0,89,100,4.12,US,1670294559
462,emerald,-23.5333,148.1667,33.52,36,0,1.56,AU,1670294792
463,mosquera,4.7059,-74.2302,12.05,87,40,2.06,CO,1670294226
464,richards bay,-28.783,32.0377,19.88,82,98,4.15,ZA,1670294806
465,lazo,43.3817,133.9014,-6.19,50,0,2.43,RU,1670294806
466,taldan,53.6667,124.8,-16.89,87,98,0.97,RU,1670294807
467,batagay,67.6333,134.6333,-28.05,99,100,1.09,RU,1670294807
468,kutum,14.2,24.6667,13.62,32,0,5.56,SD,1670294807
469,ayan,56.45,138.1667,-12.81,62,100,4.23,RU,1670294808
470,lagunas,-5.2269,-75.6753,24.49,79,75,0.95,PE,1670294565
471,doctor juan leon mallorquin,-25.4,-55.2667,24.85,87,100,1.0,PY,1670294808
472,kayes,14.0,-11.0,25.97,44,81,2.18,ML,1670294808
473,talnakh,69.4865,88.3972,-3.77,96,100,3.78,RU,1670294809
474,hoyanger,61.2204,6.0749,-0.19,90,100,2.57,NO,1670294809
475,marienburg,54.0359,19.0266,3.8,89,100,2.17,PL,1670294809
476,sumenep,-7.0167,113.8667,29.6,65,92,1.48,ID,1670294810
477,kloulklubed,7.0419,134.2556,29.28,73,100,5.73,PW,1670294810
478,pasighat,28.0667,95.3333,22.13,34,1,0.73,IN,1670294810
479,teya,60.3778,92.6267,-18.64,98,100,2.28,RU,1670294810
480,bubaque,11.2833,-15.8333,26.32,72,7,3.5,GW,1670294811
481,iracoubo,5.4802,-53.2011,24.75,90,95,3.59,GF,1670294811
482,santa rosa del sur,7.9644,-74.0544,19.1,94,15,1.36,CO,1670294811
483,gornyak,50.9942,81.4661,-19.49,97,98,1.41,RU,1670294812
484,pyrzyce,53.1462,14.8926,2.57,95,100,2.91,PL,1670294543
485,poum,-20.2333,164.0167,27.42,80,100,6.08,NC,1670294812
486,yakima,46.4665,-120.6678,-1.92,92,100,0.0,US,1670294812
487,yanam,16.7333,82.2167,25.35,68,98,2.36,IN,1670294813
488,oranjestad,12.524,-70.027,25.97,76,20,2.57,AW,1670294697
489,cuenca,-2.8833,-78.9833,13.07,76,20,2.06,EC,1670294813
490,kimbe,-5.5502,150.1429,29.08,78,85,1.18,PG,1670294813
491,seoul,37.5683,126.9778,1.69,74,75,2.06,KR,1670294358
492,veraval,20.9,70.3667,22.15,43,0,5.12,IN,1670294674
493,kankan,10.3854,-9.3057,24.17,54,72,1.71,GN,1670294506
494,brigantine,39.4101,-74.3646,-0.89,86,0,0.0,US,1670294814
495,iznoski,54.9881,35.3108,-10.02,85,100,2.93,RU,1670294814
496,tanout,14.9709,8.8879,20.06,21,100,5.68,NE,1670294814
497,jalu,29.0331,21.5482,16.06,38,34,3.27,LY,1670294793
498,gigmoto,13.7796,124.39,28.51,67,96,3.01,PH,1670294815
499,jutai,-5.1833,-68.9,23.79,87,100,0.79,BR,1670294815
500,bjornevatn,69.6672,29.9847,-3.21,93,100,3.6,NO,1670294815
501,tamandare,-8.7597,-35.1047,24.37,84,5,3.43,BR,1670294816
502,sibu,2.3,111.8167,29.17,79,40,1.54,MY,1670294816
503,rivadavia,-33.1905,-68.4608,26.5,33,39,1.34,AR,1670294816
504,namatanai,-3.6667,152.4333,28.97,70,84,4.17,PG,1670294817
505,beloha,-25.1667,45.05,25.47,66,5,2.52,MG,1670294817
506,urumqi,43.801,87.6005,-11.47,79,0,2.0,CN,1670294817
507,birao,10.2849,22.7882,21.64,24,95,4.78,CF,1670294818
508,san policarpo,12.1791,125.5072,27.65,80,100,4.25,PH,1670294818
509,popova,42.9603,131.7228,-3.35,46,0,8.54,RU,1670294818
510,dalby,-27.1833,151.2667,35.55,19,1,1.34,AU,1670294818
511,cabedelo,-6.9811,-34.8339,24.37,79,5,5.63,BR,1670294679
512,rodrigues alves,-7.738,-72.6509,23.63,78,11,0.85,BR,1670294819
513,canmore,51.0834,-115.3521,-11.29,85,100,3.6,CA,1670294819
514,dhidhdhoo,6.8833,73.1,27.46,76,87,5.77,MV,1670294819
515,griffith,41.5284,-87.4237,5.03,78,100,2.57,US,1670294717
516,tilichiki,60.4667,166.1,-14.94,89,77,4.29,RU,1670294820
517,alice springs,-23.7,133.8833,37.75,9,3,8.23,AU,1670294560
518,santa cruz,-17.8,-63.1667,27.7,69,75,1.03,BO,1670294582
519,diebougou,10.9667,-3.25,25.29,29,74,1.92,BF,1670294820
520,varniai,55.7406,22.3644,-2.51,97,100,3.35,LT,1670294820
521,gap,44.6667,6.0,-7.32,80,18,2.93,FR,1670294813
522,marsh harbour,26.5412,-77.0636,23.5,71,46,3.7,BS,1670294587
523,tshikapa,-6.4167,20.8,18.34,95,96,1.19,CD,1670294821
524,taltal,-25.4,-70.4833,17.53,81,30,0.5,CL,1670294821
525,maldonado,-34.6667,-54.9167,20.68,78,0,3.71,UY,1670294821
526,biltine,14.5333,20.9167,19.94,23,0,7.8,TD,1670294822
527,tecoanapa,16.5167,-98.75,25.29,77,0,2.0,MX,1670294822
528,moree,-29.4667,149.85,32.52,21,1,8.79,AU,1670294823
529,altay,47.8667,88.1167,-13.76,83,69,2.19,CN,1670294823
530,altamira,-3.2033,-52.2064,21.77,94,99,1.04,BR,1670294628
531,qui nhon,13.7667,109.2333,25.34,87,87,9.22,VN,1670294823
532,torbat-e jam,35.244,60.6225,-2.55,77,9,0.73,IR,1670294824
533,bako,5.7833,36.5667,17.04,69,46,1.68,ET,1670294824
534,kieta,-6.2167,155.6333,25.37,87,100,1.44,PG,1670294824
535,livingston,55.9029,-3.5226,2.89,92,75,2.06,GB,1670294500
536,kirakira,-10.4544,161.9205,29.56,70,100,3.06,SB,1670294751
537,honningsvag,70.9821,25.9704,2.86,87,75,4.12,NO,1670294825
538,la paz,-16.5,-68.15,9.99,57,75,4.63,BO,1670294097
539,kysyl-syr,63.8986,122.7617,-24.42,96,100,2.47,RU,1670294825
540,emporia,38.4039,-96.1817,6.11,87,100,1.54,US,1670294826
541,shanghai,31.2222,121.4581,10.93,50,0,1.0,CN,1670294826
542,niono,14.2526,-5.993,26.98,22,100,3.77,ML,1670294826
543,apiai,-24.5094,-48.8425,17.76,99,98,0.73,BR,1670294827
544,cravo norte,6.3017,-70.2041,23.96,75,49,2.21,CO,1670294827
545,vilhena,-12.7406,-60.1458,19.74,99,100,2.07,BR,1670294827
546,kambove,-10.8764,26.5969,15.61,95,100,0.87,CD,1670294828
547,azangaro,-14.9167,-70.2167,5.13,87,99,2.11,PE,1670294828
548,porto novo,6.4965,2.6036,27.9,90,38,1.92,BJ,1670294829
549,vestmannaeyjar,63.4427,-20.2734,3.66,70,28,2.0,IS,1670294829
550,boende,-0.2167,20.8667,20.19,99,71,0.34,CD,1670294829
551,khuzhir,53.1939,107.3397,-7.09,67,96,10.38,RU,1670294830
552,misratah,32.3754,15.0925,18.37,73,11,1.32,LY,1670294830
553,xiamen,24.4798,118.0819,18.03,63,75,5.0,CN,1670294831
554,fairbanks,64.8378,-147.7164,-5.6,91,100,0.0,US,1670294093
555,chiriqui grande,8.95,-82.1167,23.11,90,82,1.38,PA,1670294831
556,zambezi,-13.5432,23.1047,16.11,93,65,2.02,ZM,1670294832
557,boca do acre,-8.7522,-67.3978,21.94,98,100,0.74,BR,1670294832
558,boden,65.8252,21.6886,-3.0,96,41,1.25,SE,1670294832
559,ossora,59.2353,163.0719,-14.51,87,9,5.54,RU,1670294833
560,nishihara,26.1842,127.7558,21.6,64,75,10.29,JP,1670294833
561,arroyo,41.6096,-4.7969,8.11,90,100,3.6,ES,1670294834
562,tabou,4.423,-7.3528,25.42,87,85,2.26,CI,1670294834
563,minab,27.1467,57.0801,22.11,55,100,1.76,IR,1670294834
564,bonfim,3.0833,-59.95,24.22,85,99,1.07,BR,1670294835
565,troitsko-pechorsk,62.7084,56.1964,-16.55,97,100,2.85,RU,1670294835
566,prince rupert,54.3161,-130.3201,2.83,80,100,4.63,CA,1670294737
567,campoverde,-8.4753,-74.8058,26.83,68,51,1.39,PE,1670294836
568,gari,59.4307,62.3497,-17.26,97,57,2.91,RU,1670294836
569,mana,5.6592,-53.7767,23.94,93,100,2.95,GF,1670294836
570,dagupan,17.7061,121.5047,27.95,73,36,3.41,PH,1670294837
571,shimoda,34.6667,138.95,10.2,84,100,1.17,JP,1670294707
572,daloa,6.8774,-6.4502,22.35,94,99,1.29,CI,1670294837
573,sri aman,1.2376,111.4621,28.03,83,20,1.03,MY,1670294837
574,mangrol,21.1167,70.1167,21.1,46,0,5.69,IN,1670294838
575,nynashamn,58.9034,17.9479,-2.69,79,100,3.56,SE,1670294838
576,karasjok,69.4719,25.5112,-6.61,95,100,2.33,NO,1670294838
577,bemidji,47.4736,-94.8803,-14.49,82,0,0.0,US,1670294839
578,paris,48.8534,2.3488,3.21,94,100,2.06,FR,1670294430
579,necochea,-38.5473,-58.7368,25.18,40,27,9.54,AR,1670294839
580,goundam,16.4145,-3.6708,27.03,17,99,3.41,ML,1670294840
581,gladstone,-23.85,151.25,33.77,42,0,4.12,AU,1670294391
582,rundu,-17.9333,19.7667,22.55,61,97,1.72,NA,1670294840
583,sunbury,-37.5833,144.7333,19.88,63,75,5.66,AU,1670294840
584,yaan,7.3833,8.5667,22.09,21,31,1.47,NG,1670294841
